$GPGGA,130357.00,5151.0329388,N,00430.5372807,E,1,06,6.9,-6.1135,M,47.16,M,,*4F
$GPGGA,130358.00,5151.0328662,N,00430.5373040,E,1,06,6.9,-6.1669,M,47.16,M,,*44
$GPGGA,130359.00,5151.0327930,N,00430.5373262,E,1,06,6.9,-6.2202,M,47.16,M,,*4A
$GPGGA,130400.00,5151.0327202,N,00430.5373478,E,1,06,6.9,-6.2713,M,47.16,M,,*43
$GPGGA,130401.00,5151.0326478,N,00430.5373702,E,1,06,6.9,-6.3303,M,47.16,M,,*42
$GPGGA,130402.00,5151.0325760,N,00430.5373900,E,1,06,6.9,-6.3833,M,47.16,M,,*4C
$GPGGA,130403.00,5151.0325059,N,00430.5374062,E,1,06,6.9,-6.4374,M,47.16,M,,*45
$GPGGA,130404.00,5151.0324399,N,00430.5374199,E,1,06,6.9,-6.4876,M,47.16,M,,*40
$GPGGA,130405.00,5151.0323728,N,00430.5374307,E,1,06,6.9,-6.5501,M,47.16,M,,*41
$GPGGA,130406.00,5151.0323009,N,00430.5374384,E,1,06,6.9,-6.6184,M,47.16,M,,*47
$GPGGA,130407.00,5151.0322329,N,00430.5374434,E,1,06,6.9,-6.6895,M,47.16,M,,*43
$GPGGA,130408.00,5151.0321607,N,00430.5374472,E,1,06,6.9,-6.7760,M,47.16,M,,*40
$GPGGA,130409.00,5151.0320874,N,00430.5374488,E,1,06,6.9,-6.8547,M,47.16,M,,*47
$GPGGA,130410.00,5151.0320134,N,00430.5374498,E,1,06,6.9,-6.9373,M,47.16,M,,*43
$GPGGA,130411.00,5151.0319421,N,00430.5374537,E,1,06,6.9,-7.0193,M,47.16,M,,*49
$GPGGA,130412.00,5151.0318747,N,00430.5374590,E,1,06,6.9,-7.0977,M,47.16,M,,*47
$GPGGA,130413.00,5151.0318089,N,00430.5374654,E,1,06,6.9,-7.1718,M,47.16,M,,*4E
$GPGGA,130414.00,5151.0317466,N,00430.5374695,E,1,06,6.9,-7.2460,M,47.16,M,,*41
$GPGGA,130415.00,5151.0316889,N,00430.5374752,E,1,06,6.9,-7.3166,M,47.16,M,,*44
$GPGGA,130416.00,5151.0316360,N,00430.5374827,E,1,06,6.9,-7.3876,M,47.16,M,,*4E
$GPGGA,130417.00,5151.0315859,N,00430.5374895,E,1,06,6.9,-7.4597,M,47.16,M,,*41
$GPGGA,130418.00,5151.0315401,N,00430.5374963,E,1,06,6.9,-7.5347,M,47.16,M,,*4D
$GPGGA,130419.00,5151.0315031,N,00430.5375028,E,1,06,6.9,-7.6026,M,47.16,M,,*4B
$GPGGA,130420.00,5151.0314628,N,00430.5375089,E,1,06,6.9,-7.6878,M,47.16,M,,*46
$GPGGA,130421.00,5151.0314198,N,00430.5375150,E,1,06,6.9,-7.7658,M,47.16,M,,*43
$GPGGA,130422.00,5151.0313790,N,00430.5375234,E,1,06,6.9,-7.8455,M,47.16,M,,*48
$GPGGA,130423.00,5151.0313377,N,00430.5375331,E,1,06,6.9,-7.9223,M,47.16,M,,*46
$GPGGA,130424.00,5151.0312915,N,00430.5375429,E,1,06,6.8,-8.0005,M,47.16,M,,*41
$GPGGA,130425.00,5151.0312481,N,00430.5375493,E,1,06,6.8,-8.0689,M,47.16,M,,*43
$GPGGA,130426.00,5151.0312018,N,00430.5375521,E,1,06,6.8,-8.1553,M,47.16,M,,*49
$GPGGA,130427.00,5151.0311560,N,00430.5375522,E,1,06,6.8,-8.2331,M,47.16,M,,*43
$GPGGA,130428.00,5151.0311075,N,00430.5375497,E,1,06,6.8,-8.3240,M,47.16,M,,*44
$GPGGA,130429.00,5151.0310600,N,00430.5375451,E,1,06,6.8,-8.4189,M,47.16,M,,*4B
$GPGGA,130430.00,5151.0310116,N,00430.5375402,E,1,06,6.8,-8.5096,M,47.16,M,,*4B
$GPGGA,130431.00,5151.0309663,N,00430.5375365,E,1,06,6.8,-8.5983,M,47.16,M,,*4C
$GPGGA,130432.00,5151.0309202,N,00430.5375336,E,1,06,6.8,-8.6919,M,47.16,M,,*4A
$GPGGA,130433.00,5151.0308757,N,00430.5375320,E,1,06,6.8,-8.7721,M,47.16,M,,*4C
$GPGGA,130434.00,5151.0308278,N,00430.5375332,E,1,06,6.8,-8.8626,M,47.16,M,,*49
$GPGGA,130435.00,5151.0307834,N,00430.5375362,E,1,06,6.8,-8.9469,M,47.16,M,,*48
$GPGGA,130436.00,5151.0307399,N,00430.5375376,E,1,06,6.8,-9.0252,M,47.16,M,,*44
$GPGGA,130437.00,5151.0306998,N,00430.5375406,E,1,06,6.8,-9.1047,M,47.16,M,,*48
$GPGGA,130438.00,5151.0306590,N,00430.5375464,E,1,06,6.8,-9.1832,M,47.16,M,,*4D
$GPGGA,130439.00,5151.0306206,N,00430.5375537,E,1,06,6.8,-9.2591,M,47.16,M,,*44
$GPGGA,130440.00,5151.0305897,N,00430.5375621,E,1,06,6.8,-9.3360,M,47.16,M,,*46
$GPGGA,130441.00,5151.0305574,N,00430.5375691,E,1,06,6.8,-9.4165,M,47.16,M,,*4C
$GPGGA,130442.00,5151.0305276,N,00430.5375732,E,1,06,6.8,-9.4930,M,47.16,M,,*4A
$GPGGA,130443.00,5151.0305078,N,00430.5375734,E,1,06,6.8,-9.5676,M,47.16,M,,*4D
$GPGGA,130444.00,5151.0304900,N,00430.5375735,E,1,06,6.8,-9.6629,M,47.16,M,,*45
$GPGGA,130445.00,5151.0304779,N,00430.5375722,E,1,06,6.8,-9.7447,M,47.16,M,,*49
$GPGGA,130446.00,5151.0304726,N,00430.5375678,E,1,06,6.8,-9.8406,M,47.16,M,,*44
$GPGGA,130447.00,5151.0304773,N,00430.5375605,E,1,06,6.8,-9.9271,M,47.16,M,,*48
$GPGGA,130448.00,5151.0304913,N,00430.5375522,E,1,06,6.8,-10.0158,M,47.16,M,,*70
$GPGGA,130449.00,5151.0305073,N,00430.5375417,E,1,06,6.8,-10.0985,M,47.16,M,,*70
$GPGGA,130450.00,5151.0305214,N,00430.5375284,E,1,06,6.8,-10.1823,M,47.16,M,,*7B
$GPGGA,130451.00,5151.0305358,N,00430.5375161,E,1,06,6.8,-10.2607,M,47.16,M,,*70
$GPGGA,130452.00,5151.0305543,N,00430.5375015,E,1,06,6.8,-10.3315,M,47.16,M,,*7A
$GPGGA,130453.00,5151.0305750,N,00430.5374849,E,1,06,6.8,-10.4062,M,47.16,M,,*7F
$GPGGA,130454.00,5151.0305951,N,00430.5374678,E,1,06,6.7,-10.4778,M,47.16,M,,*78
$GPGGA,130455.00,5151.0306135,N,00430.5374521,E,1,06,6.7,-10.5495,M,47.16,M,,*7E
$GPGGA,130456.00,5151.0306323,N,00430.5374359,E,1,06,6.7,-10.6166,M,47.16,M,,*7B
$GPGGA,130457.00,5151.0306484,N,00430.5374224,E,1,06,6.7,-10.6825,M,47.16,M,,*75
$GPGGA,130458.00,5151.0306613,N,00430.5374136,E,1,06,6.7,-10.7459,M,47.16,M,,*70
$GPGGA,130459.00,5151.0306728,N,00430.5374080,E,1,06,6.7,-10.8019,M,47.16,M,,*7B
$GPGGA,130500.00,5151.0306753,N,00430.5374047,E,1,06,6.7,-10.8620,M,47.16,M,,*7D
$GPGGA,130501.00,5151.0306751,N,00430.5374033,E,1,06,6.7,-10.9011,M,47.16,M,,*78
$GPGGA,130502.00,5151.0306636,N,00430.5374058,E,1,06,6.7,-10.9502,M,47.16,M,,*71
$GPGGA,130503.00,5151.0306429,N,00430.5374107,E,1,06,6.7,-10.9825,M,47.16,M,,*7F
$GPGGA,130504.00,5151.0306141,N,00430.5374196,E,1,06,6.7,-11.0183,M,47.16,M,,*76
$GPGGA,130505.00,5151.0305768,N,00430.5374314,E,1,06,6.7,-11.0489,M,47.16,M,,*7E
$GPGGA,130506.00,5151.0305297,N,00430.5374441,E,1,06,6.7,-11.0811,M,47.16,M,,*72
$GPGGA,130507.00,5151.0304819,N,00430.5374544,E,1,06,6.7,-11.1089,M,47.16,M,,*72
$GPGGA,130508.00,5151.0304313,N,00430.5374635,E,1,06,6.7,-11.1511,M,47.16,M,,*7D
$GPGGA,130509.00,5151.0303778,N,00430.5374704,E,1,06,6.7,-11.1950,M,47.16,M,,*78
$GPGGA,130510.00,5151.0303260,N,00430.5374755,E,1,06,6.7,-11.2434,M,47.16,M,,*74
$GPGGA,130511.00,5151.0302766,N,00430.5374769,E,1,06,6.7,-11.2943,M,47.16,M,,*75
$GPGGA,130512.00,5151.0302338,N,00430.5374761,E,1,06,6.7,-11.3310,M,47.16,M,,*7C
$GPGGA,130513.00,5151.0301848,N,00430.5374746,E,1,06,6.7,-11.3849,M,47.16,M,,*70
$GPGGA,130514.00,5151.0301360,N,00430.5374743,E,1,06,6.7,-11.4353,M,47.16,M,,*74
$GPGGA,130515.00,5151.0300924,N,00430.5374759,E,1,06,6.7,-11.4774,M,47.16,M,,*74
$GPGGA,130516.00,5151.0300505,N,00430.5374791,E,1,06,6.7,-11.5232,M,47.16,M,,*7A
$GPGGA,130517.00,5151.0300082,N,00430.5374835,E,1,06,6.7,-11.5680,M,47.16,M,,*7D
$GPGGA,130518.00,5151.0299671,N,00430.5374869,E,1,06,6.7,-11.6040,M,47.16,M,,*79
$GPGGA,130519.00,5151.0299249,N,00430.5374898,E,1,06,6.7,-11.6447,M,47.16,M,,*7A
$GPGGA,130520.00,5151.0298810,N,00430.5374923,E,1,06,6.7,-11.6848,M,47.16,M,,*75
$GPGGA,130521.00,5151.0298385,N,00430.5374902,E,1,06,6.7,-11.7232,M,47.16,M,,*76
$GPGGA,130522.00,5151.0297998,N,00430.5374840,E,1,06,6.7,-11.7592,M,47.16,M,,*76
$GPGGA,130523.00,5151.0297594,N,00430.5374767,E,1,06,6.6,-11.8028,M,47.16,M,,*77
$GPGGA,130524.00,5151.0297233,N,00430.5374692,E,1,06,6.6,-11.8381,M,47.16,M,,*71
$GPGGA,130525.00,5151.0296965,N,00430.5374645,E,1,06,6.6,-11.8711,M,47.16,M,,*7E
$GPGGA,130526.00,5151.0296693,N,00430.5374595,E,1,06,6.6,-11.9084,M,47.16,M,,*7F
$GPGGA,130527.00,5151.0296444,N,00430.5374559,E,1,06,6.6,-11.9342,M,47.16,M,,*7F
$GPGGA,130528.00,5151.0296209,N,00430.5374523,E,1,06,6.6,-11.9592,M,47.16,M,,*79
$GPGGA,130529.00,5151.0295978,N,00430.5374495,E,1,06,6.6,-11.9817,M,47.16,M,,*7A
$GPGGA,130530.00,5151.0295725,N,00430.5374470,E,1,06,6.6,-12.0102,M,47.16,M,,*78
$GPGGA,130531.00,5151.0295469,N,00430.5374420,E,1,06,6.6,-12.0343,M,47.16,M,,*70
$GPGGA,130532.00,5151.0295192,N,00430.5374355,E,1,06,6.6,-12.0728,M,47.16,M,,*7E
$GPGGA,130533.00,5151.0294902,N,00430.5374264,E,1,06,6.6,-12.1040,M,47.16,M,,*74
$GPGGA,130534.00,5151.0294620,N,00430.5374175,E,1,06,6.6,-12.1354,M,47.16,M,,*79
$GPGGA,130535.00,5151.0294330,N,00430.5374092,E,1,06,6.6,-12.1722,M,47.16,M,,*71
$GPGGA,130536.00,5151.0294062,N,00430.5374035,E,1,06,6.6,-12.2107,M,47.16,M,,*79
$GPGGA,130537.00,5151.0293755,N,00430.5373981,E,1,06,6.6,-12.2492,M,47.16,M,,*74
$GPGGA,130538.00,5151.0293397,N,00430.5373950,E,1,06,6.6,-12.2997,M,47.16,M,,*75
$GPGGA,130539.00,5151.0292972,N,00430.5373938,E,1,06,6.6,-12.3372,M,47.16,M,,*7A
$GPGGA,130540.00,5151.0292537,N,00430.5373958,E,1,06,6.6,-12.3665,M,47.16,M,,*7C
$GPGGA,130541.00,5151.0292045,N,00430.5374001,E,1,06,6.6,-12.4058,M,47.16,M,,*70
$GPGGA,130542.00,5151.0291511,N,00430.5374081,E,1,06,6.6,-12.4343,M,47.16,M,,*75
$GPGGA,130543.00,5151.0290965,N,00430.5374213,E,1,06,6.6,-12.4558,M,47.16,M,,*7F
$GPGGA,130544.00,5151.0290434,N,00430.5374397,E,1,06,6.6,-12.4798,M,47.16,M,,*72
$GPGGA,130545.00,5151.0289853,N,00430.5374608,E,1,06,6.6,-12.5042,M,47.16,M,,*74
$GPGGA,130546.00,5151.0289289,N,00430.5374850,E,1,06,6.6,-12.5242,M,47.16,M,,*7B
$GPGGA,130547.00,5151.0288741,N,00430.5375077,E,1,06,6.6,-12.5517,M,47.16,M,,*71
$GPGGA,130548.00,5151.0288202,N,00430.5375265,E,1,06,6.6,-12.5793,M,47.16,M,,*73
$GPGGA,130549.00,5151.0287706,N,00430.5375417,E,1,06,6.6,-12.5966,M,47.16,M,,*7B
$GPGGA,130550.00,5151.0287155,N,00430.5375553,E,1,06,6.6,-12.6375,M,47.16,M,,*79
$GPGGA,130551.00,5151.0286609,N,00430.5375659,E,1,06,6.5,-12.6654,M,47.16,M,,*7B
$GPGGA,130552.00,5151.0286112,N,00430.5375728,E,1,06,6.5,-12.7042,M,47.16,M,,*72
$GPGGA,130553.00,5151.0285688,N,00430.5375768,E,1,06,6.5,-12.7400,M,47.16,M,,*72
$GPGGA,130554.00,5151.0285398,N,00430.5375765,E,1,06,6.5,-12.7621,M,47.16,M,,*7D
$GPGGA,130555.00,5151.0285244,N,00430.5375730,E,1,06,6.5,-12.7876,M,47.16,M,,*70
$GPGGA,130556.00,5151.0285084,N,00430.5375697,E,1,06,6.5,-12.8191,M,47.16,M,,*7E
$GPGGA,130557.00,5151.0284939,N,00430.5375681,E,1,06,6.5,-12.8437,M,47.16,M,,*7F
$GPGGA,130558.00,5151.0284883,N,00430.5375661,E,1,06,6.5,-12.8653,M,47.16,M,,*7E
$GPGGA,130559.00,5151.0284879,N,00430.5375653,E,1,06,6.5,-12.8786,M,47.16,M,,*72
$GPGGA,130600.00,5151.0284921,N,00430.5375675,E,1,06,6.5,-12.9015,M,47.16,M,,*79
$GPGGA,130601.00,5151.0285068,N,00430.5375723,E,1,06,6.5,-12.9029,M,47.16,M,,*70
$GPGGA,130602.00,5151.0285255,N,00430.5375741,E,1,06,6.5,-12.9152,M,47.16,M,,*76
$GPGGA,130603.00,5151.0285452,N,00430.5375747,E,1,06,6.5,-12.9300,M,47.16,M,,*75
$GPGGA,130604.00,5151.0285716,N,00430.5375728,E,1,06,6.5,-12.9319,M,47.16,M,,*70
$GPGGA,130605.00,5151.0286030,N,00430.5375680,E,1,06,6.5,-12.9442,M,47.16,M,,*7B
$GPGGA,130606.00,5151.0286384,N,00430.5375605,E,1,06,6.5,-12.9469,M,47.16,M,,*70
$GPGGA,130607.00,5151.0286724,N,00430.5375504,E,1,06,6.5,-12.9527,M,47.16,M,,*76
$GPGGA,130608.00,5151.0287015,N,00430.5375379,E,1,06,6.5,-12.9727,M,47.16,M,,*73
$GPGGA,130609.00,5151.0287272,N,00430.5375248,E,1,06,6.5,-12.9807,M,47.16,M,,*7F
$GPGGA,130610.00,5151.0287530,N,00430.5375117,E,1,06,6.5,-12.9944,M,47.16,M,,*79
$GPGGA,130611.00,5151.0287755,N,00430.5375009,E,1,06,6.5,-13.0126,M,47.16,M,,*73
$GPGGA,130612.00,5151.0287897,N,00430.5374945,E,1,06,6.5,-13.0303,M,47.16,M,,*74
$GPGGA,130613.00,5151.0287935,N,00430.5374907,E,1,06,6.5,-13.0466,M,47.16,M,,*7E
$GPGGA,130614.00,5151.0287910,N,00430.5374902,E,1,06,6.5,-13.0758,M,47.16,M,,*75
$GPGGA,130615.00,5151.0287857,N,00430.5374923,E,1,06,6.5,-13.0916,M,47.16,M,,*71
$GPGGA,130616.00,5151.0287853,N,00430.5374987,E,1,06,6.5,-13.1098,M,47.16,M,,*76
$GPGGA,130617.00,5151.0287834,N,00430.5375093,E,1,06,6.5,-13.1269,M,47.16,M,,*77
$GPGGA,130618.00,5151.0287758,N,00430.5375245,E,1,06,6.4,-13.1650,M,47.16,M,,*7B
$GPGGA,130619.00,5151.0287765,N,00430.5375400,E,1,06,6.4,-13.1801,M,47.16,M,,*79
$GPGGA,130620.00,5151.0287738,N,00430.5375533,E,1,06,6.4,-13.2200,M,47.16,M,,*72
$GPGGA,130621.00,5151.0287734,N,00430.5375629,E,1,06,6.4,-13.2535,M,47.16,M,,*76
$GPGGA,130622.00,5151.0287722,N,00430.5375687,E,1,06,6.4,-13.2936,M,47.16,M,,*79
$GPGGA,130623.00,5151.0287707,N,00430.5375711,E,1,06,6.4,-13.3337,M,47.16,M,,*7B
$GPGGA,130624.00,5151.0287675,N,00430.5375704,E,1,06,6.4,-13.3692,M,47.16,M,,*76
$GPGGA,130625.00,5151.0287622,N,00430.5375685,E,1,06,6.4,-13.4098,M,47.16,M,,*76
$GPGGA,130626.00,5151.0287524,N,00430.5375648,E,1,06,6.4,-13.4534,M,47.16,M,,*72
$GPGGA,130627.00,5151.0287414,N,00430.5375589,E,1,06,6.4,-13.4933,M,47.16,M,,*74
$GPGGA,130628.00,5151.0287288,N,00430.5375511,E,1,06,6.4,-13.5324,M,47.16,M,,*74
$GPGGA,130629.00,5151.0287208,N,00430.5375422,E,1,06,6.4,-13.5781,M,47.16,M,,*77
$GPGGA,130630.00,5151.0287136,N,00430.5375350,E,1,06,6.4,-13.6174,M,47.16,M,,*7C
$GPGGA,130631.00,5151.0287124,N,00430.5375266,E,1,06,6.4,-13.6466,M,47.16,M,,*7C
$GPGGA,130632.00,5151.0287119,N,00430.5375204,E,1,06,6.4,-13.6794,M,47.16,M,,*7B
$GPGGA,130633.00,5151.0287082,N,00430.5375130,E,1,06,6.4,-13.7081,M,47.16,M,,*7F
$GPGGA,130634.00,5151.0287076,N,00430.5375032,E,1,06,6.4,-13.7335,M,47.16,M,,*7C
$GPGGA,130635.00,5151.0287067,N,00430.5374898,E,1,06,6.4,-13.7534,M,47.16,M,,*73
$GPGGA,130636.00,5151.0287051,N,00430.5374739,E,1,06,6.4,-13.7703,M,47.16,M,,*77
$GPGGA,130637.00,5151.0287034,N,00430.5374568,E,1,06,6.4,-13.7825,M,47.16,M,,*78
$GPGGA,130638.00,5151.0287025,N,00430.5374370,E,1,06,6.4,-13.7920,M,47.16,M,,*7C
$GPGGA,130639.00,5151.0287041,N,00430.5374165,E,1,06,6.4,-13.7948,M,47.16,M,,*77
$GPGGA,130640.00,5151.0287046,N,00430.5373949,E,1,06,6.4,-13.7956,M,47.16,M,,*70
$GPGGA,130641.00,5151.0287020,N,00430.5373740,E,1,06,6.4,-13.7927,M,47.16,M,,*70
$GPGGA,130642.00,5151.0286993,N,00430.5373574,E,1,06,6.4,-13.7814,M,47.16,M,,*77
$GPGGA,130643.00,5151.0286946,N,00430.5373463,E,1,06,6.4,-13.7695,M,47.16,M,,*7E
$GPGGA,130644.00,5151.0286810,N,00430.5373385,E,1,06,6.3,-13.7649,M,47.16,M,,*72
$GPGGA,130645.00,5151.0286655,N,00430.5373323,E,1,06,6.3,-13.7600,M,47.16,M,,*7D
$GPGGA,130646.00,5151.0286495,N,00430.5373283,E,1,06,6.3,-13.7533,M,47.16,M,,*78
$GPGGA,130647.00,5151.0286289,N,00430.5373248,E,1,06,6.3,-13.7455,M,47.16,M,,*74
$GPGGA,130648.00,5151.0286068,N,00430.5373219,E,1,06,6.3,-13.7401,M,47.16,M,,*73
$GPGGA,130649.00,5151.0285796,N,00430.5373206,E,1,06,6.3,-13.7417,M,47.16,M,,*7E
$GPGGA,130650.00,5151.0285545,N,00430.5373227,E,1,06,6.3,-13.7440,M,47.16,M,,*7B
$GPGGA,130651.00,5151.0285276,N,00430.5373298,E,1,06,6.3,-13.7504,M,47.16,M,,*78
$GPGGA,130652.00,5151.0284997,N,00430.5373422,E,1,06,6.3,-13.7631,M,47.16,M,,*7C
$GPGGA,130653.00,5151.0284733,N,00430.5373601,E,1,06,6.3,-13.7734,M,47.16,M,,*7A
$GPGGA,130654.00,5151.0284490,N,00430.5373797,E,1,06,6.3,-13.7867,M,47.16,M,,*70
$GPGGA,130655.00,5151.0284298,N,00430.5374006,E,1,06,6.3,-13.7952,M,47.16,M,,*70
$GPGGA,130656.00,5151.0284116,N,00430.5374195,E,1,06,6.3,-13.8046,M,47.16,M,,*7E
$GPGGA,130657.00,5151.0283971,N,00430.5374341,E,1,06,6.3,-13.8051,M,47.16,M,,*7C
$GPGGA,130658.00,5151.0283849,N,00430.5374428,E,1,06,6.3,-13.8054,M,47.16,M,,*74
$GPGGA,130659.00,5151.0283746,N,00430.5374476,E,1,06,6.3,-13.8059,M,47.16,M,,*73
$GPGGA,130700.00,5151.0283641,N,00430.5374479,E,1,06,6.3,-13.8096,M,47.16,M,,*74
$GPGGA,130701.00,5151.0283577,N,00430.5374476,E,1,06,6.3,-13.8078,M,47.16,M,,*7C
$GPGGA,130702.00,5151.0283534,N,00430.5374468,E,1,06,6.3,-13.8108,M,47.16,M,,*71
$GPGGA,130703.00,5151.0283472,N,00430.5374460,E,1,06,6.3,-13.8112,M,47.16,M,,*70
$GPGGA,130704.00,5151.0283416,N,00430.5374415,E,1,06,6.3,-13.8163,M,47.16,M,,*71
$GPGGA,130705.00,5151.0283413,N,00430.5374358,E,1,06,6.3,-13.8032,M,47.16,M,,*7E
$GPGGA,130706.00,5151.0283378,N,00430.5374295,E,1,06,6.3,-13.7949,M,47.16,M,,*7D
$GPGGA,130707.00,5151.0283299,N,00430.5374252,E,1,06,6.3,-13.7869,M,47.16,M,,*7A
$GPGGA,130708.00,5151.0283191,N,00430.5374225,E,1,06,6.3,-13.7753,M,47.16,M,,*78
$GPGGA,130709.00,5151.0283049,N,00430.5374214,E,1,06,6.3,-13.7588,M,47.16,M,,*7B
$GPGGA,130710.00,5151.0282899,N,00430.5374198,E,1,06,6.2,-13.7405,M,47.16,M,,*75
$GPGGA,130711.00,5151.0282740,N,00430.5374193,E,1,06,6.2,-13.7243,M,47.16,M,,*70
$GPGGA,130712.00,5151.0282541,N,00430.5374205,E,1,06,6.2,-13.6994,M,47.16,M,,*7C
$GPGGA,130713.00,5151.0282355,N,00430.5374205,E,1,06,6.2,-13.6756,M,47.16,M,,*7E
$GPGGA,130714.00,5151.0282165,N,00430.5374171,E,1,06,6.2,-13.6515,M,47.16,M,,*7D
$GPGGA,130715.00,5151.0282048,N,00430.5374083,E,1,06,6.2,-13.6284,M,47.16,M,,*71
$GPGGA,130716.00,5151.0282004,N,00430.5373954,E,1,06,6.2,-13.6107,M,47.16,M,,*76
$GPGGA,130717.00,5151.0282005,N,00430.5373802,E,1,06,6.2,-13.5958,M,47.16,M,,*75
$GPGGA,130718.00,5151.0282004,N,00430.5373629,E,1,06,6.2,-13.5861,M,47.16,M,,*77
$GPGGA,130719.00,5151.0282060,N,00430.5373443,E,1,06,6.2,-13.5713,M,47.16,M,,*70
$GPGGA,130720.00,5151.0282136,N,00430.5373279,E,1,06,6.2,-13.5634,M,47.16,M,,*73
$GPGGA,130721.00,5151.0282183,N,00430.5373171,E,1,06,6.2,-13.5602,M,47.16,M,,*72
$GPGGA,130722.00,5151.0282188,N,00430.5373152,E,1,06,6.2,-13.5554,M,47.16,M,,*7B
$GPGGA,130723.00,5151.0282161,N,00430.5373206,E,1,06,6.2,-13.5568,M,47.16,M,,*70
$GPGGA,130724.00,5151.0282053,N,00430.5373319,E,1,06,6.2,-13.5581,M,47.16,M,,*7F
$GPGGA,130725.00,5151.0281902,N,00430.5373479,E,1,06,6.2,-13.5516,M,47.16,M,,*7F
$GPGGA,130726.00,5151.0281707,N,00430.5373668,E,1,06,6.2,-13.5422,M,47.16,M,,*73
$GPGGA,130727.00,5151.0281387,N,00430.5373886,E,1,06,6.2,-13.5401,M,47.16,M,,*71
$GPGGA,130728.00,5151.0280986,N,00430.5374099,E,1,06,6.2,-13.5344,M,47.16,M,,*73
$GPGGA,130729.00,5151.0280566,N,00430.5374285,E,1,06,6.2,-13.5358,M,47.16,M,,*72
$GPGGA,130730.00,5151.0280159,N,00430.5374444,E,1,06,6.2,-13.5389,M,47.16,M,,*75
$GPGGA,130731.00,5151.0279778,N,00430.5374550,E,1,06,6.2,-13.5416,M,47.16,M,,*72
$GPGGA,130732.00,5151.0279435,N,00430.5374593,E,1,06,6.2,-13.5539,M,47.16,M,,*78
$GPGGA,130733.00,5151.0279118,N,00430.5374568,E,1,06,6.2,-13.5678,M,47.16,M,,*71
$GPGGA,130734.00,5151.0278853,N,00430.5374496,E,1,06,6.2,-13.5799,M,47.16,M,,*7F
$GPGGA,130735.00,5151.0278662,N,00430.5374402,E,1,06,6.2,-13.5884,M,47.16,M,,*7C
$GPGGA,130736.00,5151.0278538,N,00430.5374300,E,1,06,6.1,-13.5969,M,47.16,M,,*77
$GPGGA,130737.00,5151.0278454,N,00430.5374202,E,1,06,6.1,-13.6041,M,47.16,M,,*7E
$GPGGA,130738.00,5151.0278411,N,00430.5374140,E,1,06,6.1,-13.6181,M,47.16,M,,*78
$GPGGA,130739.00,5151.0278417,N,00430.5374099,E,1,06,6.1,-13.6302,M,47.16,M,,*73